{"places":[{"title":"Adisa Rustemovi\u0107","address":"","phone":38761906308,"email":"adisa.rustemovic1987@gmail.com","tags":["all","sarajevo"],"lat":43.8314486,"lng":18.3075233,"icon":"\/img\/marker.png"},{"title":"Aleksandra Had\u017ei\u0107","address":"","phone":38765638767,"email":"hadzicsandra74@gmail.com","tags":["all","banja-luka"],"lat":44.7741181,"lng":17.1961532,"icon":"\/img\/marker.png"},{"title":"Alisa \u010cati\u0107","address":"Aleja Lipa 9","phone":38762888403,"email":"info@psiholoskisavjetnik.com","tags":["all","sarajevo"],"lat":43.8526579,"lng":18.3952884,"icon":"\/img\/marker.png"},{"title":"Amra Jajetovi\u0107","address":"","phone":38761546590,"email":"amrajajetovic@gmail.com","tags":["all","sarajevo"],"lat":43.8519774,"lng":18.3866868,"icon":"\/img\/marker.png"},{"title":"Ana Lovri\u0107","address":"Huse Masli\u0107a 2","phone":38763407888,"email":"ana.vucic@outlook.com","tags":["all","mostar"],"lat":43.3416104,"lng":17.8030427,"icon":"\/img\/marker.png"},{"title":"Arnela Memi\u0107","address":"","phone":38761818542,"email":"memic.arnela@gmail.com","tags":["all","mostar"],"lat":43.3416104,"lng":17.8030427,"icon":"\/img\/marker.png"},{"title":"Dajana \u0160ipraga Zlojutro","address":"Kraji\u0161kih brigada 115","phone":"","email":"dajana.sipraga@gmail.com","tags":["all","banja-luka"],"lat":44.7741181,"lng":17.1961532,"icon":"\/img\/marker.png"},{"title":"Danka Stojanovi\u0107","address":"","phone":38765585727,"email":"stojanovicdanka2@gmail.com","tags":["all","banja-luka"],"lat":44.7741181,"lng":17.1961532,"icon":"\/img\/marker.png"},{"title":"Delila Lisica","address":"","phone":38761336925,"email":"delila.lisica@gmail.com","tags":["all","sarajevo"],"lat":43.8519774,"lng":18.3866868,"icon":"\/img\/marker.png"},{"title":"Edita Paji\u0107","address":"","phone":38761891069,"email":"editapajic@hotmail.com","tags":["all","mostar"],"lat":43.3416104,"lng":17.8030427,"icon":"\/img\/marker.png"},{"title":"Edna Haznadarevi\u0107","address":"","phone":38761408635,"email":"haznadarevicedna@yahoo.com","tags":["all","mostar"],"lat":43.3416104,"lng":17.8030427,"icon":"\/img\/marker.png"},{"title":"Elma Avdi\u0107","address":"","phone":387603073102,"email":"elmavdic@hotmail.com","tags":["all","sarajevo"],"lat":43.8519774,"lng":18.3866868,"icon":"\/img\/marker.png"},{"title":"Elma Selmanagi\u0107-Lizde","address":"Azize \u0160a\u0107irbegovi\u0107 bb","phone":"","email":"eslizde@gmail.com","tags":["all","sarajevo"],"lat":43.8519774,"lng":18.3866868,"icon":"\/img\/marker.png"},{"title":"Emina Kadi\u0107","address":"Hasana Kiki\u0107a 13","phone":39763790778,"email":"eminakadic@yahoo.com","tags":["all","sarajevo"],"lat":43.8519774,"lng":18.3866868,"icon":"\/img\/marker.png"},{"title":"Emira Kohni\u0107","address":"13.Ulica br.9","phone":38763331910,"email":"emira.kohnic@gmail.com","tags":["all","orasje"],"lat":45.0340351,"lng":18.6951811,"icon":"\/img\/marker.png"},{"title":"Gordana Ru\u017ei\u0107","address":"Bra\u0107e Potkonjaka 4","phone":38765230308,"email":"terapeutovkutak@gmail.com","tags":["all","banja-luka"],"lat":44.7741181,"lng":17.1961532,"icon":"\/img\/marker.png"},{"title":"Ivana Or\u0161oli\u0107","address":"Oslobo\u0111enja 53 Tolisa","phone":38763688252,"email":"ivana.orsolic@hotmail.com","tags":["all","orasje"],"lat":45.0340351,"lng":18.6951811,"icon":"\/img\/marker.png"},{"title":"Jasmina Bulji\u0107","address":"","phone":38762444541,"email":"jasmina.buljic@hotmail.com","tags":["all","sarajevo"],"lat":43.8519774,"lng":18.3866868,"icon":"\/img\/marker.png"},{"title":"Lejla Krvavac","address":"","phone":38762425419,"email":"krvavac.lejla@gmail.com","tags":["all","capljina"],"lat":43.1129042,"lng":17.7032673,"icon":"\/img\/marker.png"},{"title":"Marina Novakovi\u0107","address":"Sime Peri\u0107a 2","phone":381649329835,"email":"novakovicmarina@gmail.com","tags":["all","brcko"],"lat":44.8770632,"lng":18.8095289,"icon":"\/img\/marker.png"},{"title":"Medina Muhamedagi\u0107","address":"","phone":38761596728,"email":"medina.muhamedagic@gmail.com","tags":["all","sarajevo"],"lat":43.8519774,"lng":18.3866868,"icon":"\/img\/marker.png"},{"title":"Meliha Fejzi\u0107","address":"","phone":38761360796,"email":"meliha_fejzic@yahoo.com","tags":["all","sarajevo"],"lat":43.8519774,"lng":18.3866868,"icon":"\/img\/marker.png"},{"title":"Meliha Sara\u010devi\u0107","address":"","phone":"","email":"melidalma@yahoo.com","tags":["all","sarajevo"],"lat":43.8519774,"lng":18.3866868,"icon":"\/img\/marker.png"},{"title":"Merima Bejtagi\u0107-Maki\u0107","address":"Hasana Kiki\u0107a 13","phone":"","email":"merima.bejtagic@hotmail.com","tags":["all","sarajevo"],"lat":43.8519774,"lng":18.3866868,"icon":"\/img\/marker.png"},{"title":"Morgijana Kari\u0107 Nezirovi\u0107","address":"Hasana Kiki\u0107a 13","phone":38762941002,"email":"morgijana@yahoo.com","tags":["all","sarajevo"],"lat":43.8519774,"lng":18.3866868,"icon":"\/img\/marker.png"},{"title":"Nata\u0161a Kahrimanovi\u0107","address":"","phone":38762527044,"email":"kahrimanovic.natasa9@gmail.com","tags":["all","sarajevo"],"lat":43.8519774,"lng":18.3866868,"icon":"\/img\/marker.png"},{"title":"Nermina Be\u010direvi\u0107","address":"Bra\u0107e Begi\u0107 6","phone":"","email":"nerminabecirevic@yahoo.com","tags":["all","sarajevo"],"lat":43.8519774,"lng":18.3866868,"icon":"\/img\/marker.png"},{"title":"Nijaz Omanovi\u0107","address":"","phone":38762691117,"email":"omanovicnijaz@gmail.com","tags":["all","sarajevo"],"lat":43.8519774,"lng":18.3866868,"icon":"\/img\/marker.png"},{"title":"Olica Marinkovi\u0107- \u0160u\u0161i\u0107","address":"Rate Dugonji\u0107a","phone":38761732206,"email":"olica@bih.net.ba","tags":["all","tuzla"],"lat":44.5391105,"lng":18.675193,"icon":"\/img\/marker.png"},{"title":"Selma Ali\u010di\u0107","address":"Klosterska 13","phone":61704249,"email":"selmalicic@gmail.com, selma.alicic@amicaeduca.ba","tags":["all","tuzla"],"lat":"klosterska","lng":null,"icon":"\/img\/marker.png"},{"title":"Tanja Radosavac","address":"","phone":38765691259,"email":"radosavact@gmail.com","tags":["all","banja-luka"],"lat":44.7741181,"lng":17.1961532,"icon":"\/img\/marker.png"},{"title":"Tanja Tankosi\u0107 Girt","address":"Hasana Kiki\u0107a 13","phone":38762335329,"email":"tanja@uspit.ba","tags":["all","sarajevo"],"lat":43.8519774,"lng":18.3866868,"icon":"\/img\/marker.png"},{"title":"Tatjana Preradovi\u0107 Sjenica","address":"","phone":38765826565,"email":"genogrambl@gmail.com","tags":["all","banja-luka"],"lat":44.7741181,"lng":17.1961532,"icon":"\/img\/marker.png"},{"title":"Vedrana Marinkovi\u0107","address":"Rate Dugonji\u0107a","phone":38761736405,"email":"marinkovic.vedrana@bih.net.ba","tags":["all","tuzla"],"lat":44.5391105,"lng":18.675193,"icon":"\/img\/marker.png"},{"title":"Vedrana Raki\u0107","address":"Profesora Bakajli\u0107a 39\/2","phone":38765763263,"email":"sharena108@gmail.com","tags":["all","bijeljina"],"lat":44.7574154,"lng":19.2178854,"icon":"\/img\/marker.png"},{"title":"Zumreta Humo","address":"","phone":38761536111,"email":"zumretahumo@yahoo.com","tags":["all","mostar"],"lat":43.3416104,"lng":17.8030427,"icon":"\/img\/marker.png"},{"title":"\u0110ana Lon\u010darica","address":"Hasana Brki\u0107a 45","phone":38761181342,"email":"loncaricam@yahoo.com","tags":["all","sarajevo"],"lat":43.8519774,"lng":18.3866868,"icon":"\/img\/marker.png"},{"title":"\u0110ema Voloder Nadarevi\u0107","address":"","phone":38761223484,"email":"djema_voloder@yahoo.com","tags":["all","sarajevo"],"lat":43.8519774,"lng":18.3866868,"icon":"\/img\/marker.png"}]}